mid,x,y,z,xxx,pitch,roll,yaw,vgx,vgy,vgz,templ,temph,tof,h,bat,baro,time,agx,agy,sgz
-1,-100,-100,-100,"-1,-1,-1",0,0,-128,0,0,0,77,82,6553,0,82,55.48,0,-2.00,-6.00,-999.00,
-1,-100,-100,-100,"-1,-1,-1",0,0,-128,0,0,0,77,82,6553,0,82,55.49,0,-2.00,-2.00,-1001.00,
-1,-100,-100,-100,"-1,-1,-1",0,0,-128,0,0,0,79,81,6553,0,82,55.51,0,-2.00,-3.00,-997.00,
-1,-100,-100,-100,"-1,-1,-1",0,0,-128,0,0,0,79,81,6553,0,82,55.51,0,-3.00,-3.00,-999.00,
-1,-100,-100,-100,"-1,-1,-1",0,0,-128,0,0,0,79,81,6553,0,82,55.51,0,0.00,-8.00,-997.00,
-1,-100,-100,-100,"-1,-1,-1",0,0,-128,0,0,0,79,81,6553,0,82,55.51,0,-7.00,-4.00,-993.00,
-1,-100,-100,-100,"-1,-1,-1",0,0,-128,0,0,0,79,81,6553,0,82,55.51,0,-32.00,-42.00,-1006.00,
-1,-100,-100,-100,"-1,-1,-1",0,0,-127,0,0,0,79,81,6553,0,82,55.51,0,0.00,7.00,-1016.00,
-1,-100,-100,-100,"-1,-1,-1",0,0,-127,0,0,0,79,81,10,0,82,55.51,0,-12.00,2.00,-1180.00,
-1,-100,-100,-100,"-1,-1,-1",-1,0,-127,0,0,-1,79,81,10,0,82,55.51,0,6.00,-10.00,-1346.00,
-1,-100,-100,-100,"-1,-1,-1",0,0,-128,0,0,-4,79,81,13,0,82,55.51,0,-2.00,0.00,-1239.00,
-1,-100,-100,-100,"-1,-1,-1",0,0,-128,0,0,-7,79,81,21,0,82,55.71,0,0.00,-23.00,-1089.00,
-1,-100,-100,-100,"-1,-1,-1",0,0,-127,0,0,-8,79,82,28,10,82,55.88,0,-12.00,-23.00,-1004.00,
-1,-100,-100,-100,"-1,-1,-1",0,0,-127,0,0,-8,79,82,38,20,82,55.94,1,-7.00,6.00,-976.00,
-1,-100,-100,-100,"-1,-1,-1",0,0,-127,0,0,-8,79,82,43,30,82,55.99,1,4.00,-1.00,-926.00,
-1,-100,-100,-100,"-1,-1,-1",0,0,-127,0,0,-7,79,82,51,30,82,56.07,1,4.00,-13.00,-903.00,
-1,-100,-100,-100,"-1,-1,-1",0,0,-127,0,0,-6,79,82,57,40,82,56.17,1,-1.00,-5.00,-878.00,
-1,-100,-100,-100,"-1,-1,-1",0,0,-127,0,0,-5,79,82,62,50,82,56.22,1,19.00,-11.00,-882.00,
-1,-100,-100,-100,"-1,-1,-1",0,0,-127,0,0,-4,79,82,66,50,82,56.23,1,-13.00,7.00,-903.00,
-1,-100,-100,-100,"-1,-1,-1",0,0,-127,0,0,-2,79,82,69,50,82,56.31,1,-1.00,-1.00,-913.00,
-1,-100,-100,-100,"-1,-1,-1",0,0,-127,0,0,-2,79,82,72,60,82,56.32,1,-7.00,-12.00,-922.00,
-1,-100,-100,-100,"-1,-1,-1",0,0,-127,0,0,0,79,82,73,60,82,56.38,1,-24.00,-1.00,-959.00,
-1,-100,-100,-100,"-1,-1,-1",0,0,-127,0,0,0,80,82,75,60,82,56.37,2,1.00,-16.00,-974.00,
-1,-100,-100,-100,"-1,-1,-1",0,0,-127,0,0,0,80,82,76,60,82,56.37,2,15.00,-19.00,-977.00,
-1,-100,-100,-100,"-1,-1,-1",0,0,-127,0,0,0,80,82,77,60,82,56.40,2,-22.00,11.00,-1016.00,
-1,-100,-100,-100,"-1,-1,-1",0,0,-127,0,0,0,80,82,77,60,82,56.42,2,4.00,-4.00,-995.00,
-1,-100,-100,-100,"-1,-1,-1",0,0,-127,0,0,0,80,82,78,60,82,56.42,2,1.00,-5.00,-994.00,
-1,-100,-100,-100,"-1,-1,-1",0,0,-127,0,0,0,80,82,79,60,81,56.43,2,-12.00,11.00,-1016.00,
-1,-100,-100,-100,"-1,-1,-1",0,0,-127,0,0,0,80,82,80,60,81,56.41,2,6.00,-8.00,-1003.00,
-1,-100,-100,-100,"-1,-1,-1",0,0,-127,0,0,0,80,82,80,70,81,56.47,2,-1.00,7.00,-991.00,
-1,-100,-100,-100,"-1,-1,-1",0,0,-127,0,0,0,80,82,81,70,81,56.45,2,2.00,10.00,-1009.00,
-1,-100,-100,-100,"-1,-1,-1",0,0,-127,0,0,0,80,82,82,70,81,56.44,2,-3.00,-31.00,-964.00,
-1,-100,-100,-100,"-1,-1,-1",0,0,-127,0,0,0,78,82,82,70,81,56.46,3,-4.00,-11.00,-981.00,
-1,-100,-100,-100,"-1,-1,-1",0,0,-127,0,0,0,78,82,82,70,81,56.42,3,-15.00,9.00,-997.00,
-1,-100,-100,-100,"-1,-1,-1",0,0,-127,0,0,0,78,82,82,70,81,56.45,3,4.00,-12.00,-980.00,
-1,-100,-100,-100,"-1,-1,-1",0,0,-127,0,0,0,78,82,83,70,81,56.42,3,-2.00,-8.00,-993.00,
-1,-100,-100,-100,"-1,-1,-1",0,0,-127,0,0,0,78,82,83,70,81,56.45,3,1.00,6.00,-1009.00,
-1,-100,-100,-100,"-1,-1,-1",0,0,-127,0,0,0,78,82,83,70,81,56.48,3,2.00,3.00,-1003.00,
-1,-100,-100,-100,"-1,-1,-1",0,0,-127,0,0,0,78,82,83,70,81,56.50,3,-6.00,-9.00,-995.00,
-1,-100,-100,-100,"-1,-1,-1",0,0,-127,0,0,0,78,82,83,70,81,56.44,3,2.00,-13.00,-993.00,
-1,-100,-100,-100,"-1,-1,-1",0,0,-127,0,0,0,78,82,83,70,81,56.45,3,-6.00,-26.00,-997.00,
-1,-100,-100,-100,"-1,-1,-1",0,0,-127,0,0,0,78,82,83,70,81,56.45,3,-2.00,-4.00,-981.00,
-1,-100,-100,-100,"-1,-1,-1",0,0,-127,0,0,0,78,81,82,70,81,56.47,4,-33.00,-20.00,-977.00,
-1,-100,-100,-100,"-1,-1,-1",0,0,-127,0,0,0,78,81,82,70,81,56.42,4,-7.00,-5.00,-1008.00,
-1,-100,-100,-100,"-1,-1,-1",0,0,-127,0,0,0,78,81,82,70,81,56.48,4,3.00,-15.00,-1000.00,
-1,-100,-100,-100,"-1,-1,-1",0,0,-127,0,0,0,78,81,82,70,81,56.40,4,1.00,-21.00,-984.00,
-1,-100,-100,-100,"-1,-1,-1",0,0,-127,0,0,0,78,81,82,70,81,56.48,4,2.00,-8.00,-990.00,
-1,-100,-100,-100,"-1,-1,-1",0,0,-127,0,0,0,78,81,82,70,81,56.43,4,2.00,-2.00,-1005.00,
-1,-100,-100,-100,"-1,-1,-1",0,0,-127,0,0,0,78,81,82,70,81,56.41,4,2.00,-25.00,-966.00,
-1,-100,-100,-100,"-1,-1,-1",0,0,-127,0,0,0,78,81,82,70,81,56.35,4,19.00,-4.00,-991.00,
-1,-100,-100,-100,"-1,-1,-1",0,0,-127,0,0,0,78,81,81,70,81,56.43,4,-18.00,1.00,-1008.00,
-1,-100,-100,-100,"-1,-1,-1",0,0,-127,0,0,0,78,81,81,70,81,56.41,4,-4.00,-5.00,-1002.00,
-1,-100,-100,-100,"-1,-1,-1",0,0,-127,0,0,0,78,81,81,70,81,56.43,5,3.00,2.00,-1014.00,
-1,-100,-100,-100,"-1,-1,-1",0,0,-127,0,0,0,78,81,81,70,81,56.49,5,-3.00,-2.00,-990.00,
-1,-100,-100,-100,"-1,-1,-1",0,0,-127,0,0,0,78,81,81,70,81,56.41,5,2.00,-12.00,-1000.00,
-1,-100,-100,-100,"-1,-1,-1",0,0,-127,0,0,0,78,81,81,70,81,56.39,5,0.00,-22.00,-1003.00,
-1,-100,-100,-100,"-1,-1,-1",0,0,-127,0,0,0,78,81,81,70,81,56.41,5,-3.00,-8.00,-997.00,
-1,-100,-100,-100,"-1,-1,-1",0,0,-127,0,0,0,78,81,81,70,81,56.42,5,-1.00,-5.00,-1007.00,
-1,-100,-100,-100,"-1,-1,-1",0,0,-127,0,0,0,78,81,81,70,81,56.41,5,5.00,5.00,-1005.00,
-1,-100,-100,-100,"-1,-1,-1",0,0,-127,0,0,0,78,81,80,70,81,56.39,5,-8.00,-6.00,-994.00,
-1,-100,-100,-100,"-1,-1,-1",0,0,-127,0,0,0,78,81,80,70,81,56.42,5,0.00,-9.00,-1006.00,
-1,-100,-100,-100,"-1,-1,-1",0,0,-127,0,0,0,78,81,80,70,81,56.40,5,-2.00,5.00,-1004.00,
-1,-100,-100,-100,"-1,-1,-1",0,0,-127,0,0,0,78,82,80,70,81,56.43,6,-10.00,-1.00,-1002.00,
-1,-100,-100,-100,"-1,-1,-1",0,0,-127,0,0,0,78,82,80,70,81,56.40,6,2.00,-5.00,-1012.00,
-1,-100,-100,-100,"-1,-1,-1",0,0,-127,0,0,0,78,82,80,70,81,56.37,6,6.00,-13.00,-978.00,
-1,-100,-100,-100,"-1,-1,-1",0,0,-127,0,0,0,78,82,80,70,81,56.42,6,0.00,-4.00,-1001.00,
-1,-100,-100,-100,"-1,-1,-1",0,0,-127,0,0,0,78,82,80,70,81,56.37,6,-3.00,2.00,-999.00,
-1,-100,-100,-100,"-1,-1,-1",0,0,-127,0,0,0,78,82,80,70,81,56.43,6,0.00,6.00,-996.00,
-1,-100,-100,-100,"-1,-1,-1",0,0,-127,0,0,0,78,82,80,70,81,56.37,6,-3.00,-5.00,-996.00,
-1,-100,-100,-100,"-1,-1,-1",0,0,-127,0,0,0,78,82,81,70,81,56.34,6,13.00,-3.00,-986.00,
-1,-100,-100,-100,"-1,-1,-1",0,0,-127,0,0,0,78,82,81,70,81,56.38,6,15.00,-10.00,-970.00,
-1,-100,-100,-100,"-1,-1,-1",0,0,-127,0,0,0,78,82,80,70,81,56.40,6,5.00,-3.00,-999.00,
-1,-100,-100,-100,"-1,-1,-1",-2,0,-127,0,0,0,79,81,81,70,81,56.41,7,-15.00,-1.00,-1000.00,
-1,-100,-100,-100,"-1,-1,-1",-6,0,-127,0,0,0,79,81,83,70,81,56.34,7,-16.00,1.00,-1002.00,
-1,-100,-100,-100,"-1,-1,-1",-7,0,-127,-1,-1,0,79,81,83,70,81,56.36,7,-18.00,-7.00,-1013.00,
-1,-100,-100,-100,"-1,-1,-1",-7,0,-127,-1,-2,0,79,81,82,70,81,56.41,7,-10.00,-8.00,-995.00,
-1,-100,-100,-100,"-1,-1,-1",-6,0,-127,-2,-3,0,79,81,82,70,81,56.39,7,-26.00,-9.00,-1022.00,
-1,-100,-100,-100,"-1,-1,-1",-6,0,-127,-3,-3,0,79,81,82,70,81,56.39,7,-39.00,-16.00,-1002.00,
-1,-100,-100,-100,"-1,-1,-1",-6,0,-127,-3,-4,0,79,81,83,70,81,56.37,7,-44.00,-10.00,-999.00,
-1,-100,-100,-100,"-1,-1,-1",-6,0,-127,-3,-4,0,79,81,83,70,81,56.32,7,-44.00,-13.00,-994.00,
-1,-100,-100,-100,"-1,-1,-1",-6,0,-127,-3,-4,0,79,81,83,70,81,56.27,7,-50.00,-19.00,-987.00,
-1,-100,-100,-100,"-1,-1,-1",-6,0,-127,-4,-5,0,79,81,114,70,81,56.29,7,-43.00,-9.00,-988.00,
-1,-100,-100,-100,"-1,-1,-1",-6,0,-127,-4,-5,0,78,81,150,70,81,56.26,8,-52.00,-5.00,-996.00,
-1,-100,-100,-100,"-1,-1,-1",-6,0,-127,-4,-5,0,78,81,121,70,81,56.26,8,-67.00,-4.00,-996.00,
-1,-100,-100,-100,"-1,-1,-1",-6,0,-127,-4,-6,0,78,81,83,70,81,56.16,8,-66.00,-15.00,-989.00,
-1,-100,-100,-100,"-1,-1,-1",-5,0,-127,-5,-6,0,78,81,77,70,81,56.10,8,-88.00,1.00,-1009.00,
-1,-100,-100,-100,"-1,-1,-1",-5,0,-127,-5,-7,0,78,81,80,70,81,56.25,8,-72.00,-17.00,-1000.00,
-1,-100,-100,-100,"-1,-1,-1",-4,0,-127,-5,-7,0,78,81,86,70,81,56.23,8,-75.00,-2.00,-995.00,
-1,-100,-100,-100,"-1,-1,-1",-4,0,-127,-6,-7,0,78,81,87,70,81,56.25,8,-54.00,-8.00,-971.00,
-1,-100,-100,-100,"-1,-1,-1",-4,0,-127,-6,-7,0,78,81,87,70,81,56.21,8,-77.00,6.00,-1007.00,
-1,-100,-100,-100,"-1,-1,-1",-4,0,-127,-6,-7,0,78,81,95,70,81,56.20,8,-58.00,-26.00,-990.00,
-1,-100,-100,-100,"-1,-1,-1",-4,0,-127,-6,-7,0,78,81,145,70,81,56.16,8,-75.00,-12.00,-1006.00,
-1,-100,-100,-100,"-1,-1,-1",-4,0,-127,-6,-7,0,78,81,159,70,81,56.17,9,-65.00,-17.00,-994.00,
-1,-100,-100,-100,"-1,-1,-1",-3,0,-127,-6,-7,0,78,81,158,70,81,56.12,9,-62.00,-20.00,-1007.00,
-1,-100,-100,-100,"-1,-1,-1",0,1,-127,-6,-7,0,78,81,159,70,81,56.08,9,-74.00,0.00,-1006.00,
-1,-100,-100,-100,"-1,-1,-1",0,1,-127,-4,-5,0,78,81,160,70,81,56.13,9,-62.00,-23.00,-1007.00,
-1,-100,-100,-100,"-1,-1,-1",0,0,-127,-3,-4,0,78,81,159,70,81,56.20,9,-58.00,-7.00,-1006.00,
-1,-100,-100,-100,"-1,-1,-1",0,0,-127,-2,-3,0,78,81,160,70,81,56.18,9,-59.00,-19.00,-988.00,
-1,-100,-100,-100,"-1,-1,-1",0,0,-127,-2,-2,0,78,81,162,70,81,56.21,9,-43.00,-22.00,-1011.00,
-1,-100,-100,-100,"-1,-1,-1",-1,0,-127,-1,-2,0,78,81,162,70,81,56.18,9,-55.00,-2.00,-982.00,
-1,-100,-100,-100,"-1,-1,-1",-1,0,-127,-2,-2,0,78,81,161,70,81,56.19,9,-50.00,-6.00,-983.00,
-1,-100,-100,-100,"-1,-1,-1",-1,0,-127,-2,-2,0,78,81,162,70,81,56.21,9,-48.00,1.00,-1003.00,
-1,-100,-100,-100,"-1,-1,-1",0,0,-127,-2,-2,0,78,82,145,70,81,56.14,10,-43.00,1.00,-1004.00,
-1,-100,-100,-100,"-1,-1,-1",0,0,-127,-2,-2,0,78,82,104,70,81,56.24,10,-45.00,5.00,-998.00,
-1,-100,-100,-100,"-1,-1,-1",0,0,-127,-2,-2,0,78,82,97,70,81,56.25,10,-51.00,-4.00,-976.00,
-1,-100,-100,-100,"-1,-1,-1",0,0,-127,-2,-2,0,78,82,96,70,81,56.29,10,-38.00,11.00,-1010.00,
-1,-100,-100,-100,"-1,-1,-1",0,0,-127,-2,-2,0,78,82,97,70,81,56.28,10,-37.00,-13.00,-970.00,
-1,-100,-100,-100,"-1,-1,-1",0,0,-127,-2,-2,0,78,82,97,70,81,56.35,10,-38.00,-23.00,-984.00,
-1,-100,-100,-100,"-1,-1,-1",0,0,-127,-2,-2,0,78,82,98,70,81,56.37,10,-31.00,2.00,-1004.00,
-1,-100,-100,-100,"-1,-1,-1",0,-1,-127,-2,-1,0,78,82,98,70,81,56.32,10,-15.00,-16.00,-961.00,
-1,-100,-100,-100,"-1,-1,-1",1,-2,-127,-2,-1,0,78,82,99,70,81,56.38,10,-26.00,10.00,-1054.00,
-1,-100,-100,-100,"-1,-1,-1",3,1,-127,-1,0,0,78,82,99,70,81,56.41,10,-25.00,28.00,-1004.00,
-1,-100,-100,-100,"-1,-1,-1",2,2,-127,-1,0,0,78,81,100,70,81,56.35,11,4.00,-23.00,-998.00,
-1,-100,-100,-100,"-1,-1,-1",0,0,-127,0,0,0,78,81,100,70,81,56.33,11,22.00,-12.00,-987.00,
-1,-100,-100,-100,"-1,-1,-1",0,0,-127,0,0,0,78,81,100,70,81,56.32,11,-7.00,-16.00,-976.00,
-1,-100,-100,-100,"-1,-1,-1",0,0,-127,0,0,0,78,81,100,70,81,56.27,11,-9.00,-3.00,-971.00,
-1,-100,-100,-100,"-1,-1,-1",0,0,-127,0,0,0,78,81,99,70,81,56.27,11,-10.00,-7.00,-970.00,
-1,-100,-100,-100,"-1,-1,-1",0,-1,-127,0,0,0,78,81,98,80,81,56.31,11,-3.00,7.00,-979.00,
-1,-100,-100,-100,"-1,-1,-1",0,0,-127,0,0,0,78,81,97,70,81,56.28,11,-9.00,15.00,-1005.00,
-1,-100,-100,-100,"-1,-1,-1",0,0,-127,0,0,0,78,81,96,70,81,56.30,11,-4.00,-26.00,-968.00,
-1,-100,-100,-100,"-1,-1,-1",0,0,-127,0,0,0,78,81,95,70,81,56.28,11,0.00,6.00,-1007.00,
-1,-100,-100,-100,"-1,-1,-1",0,0,-127,0,0,0,78,81,94,70,81,56.23,11,21.00,-1.00,-989.00,
-1,-100,-100,-100,"-1,-1,-1",0,0,-127,0,0,1,78,82,92,70,81,56.28,12,-5.00,5.00,-1027.00,
-1,-100,-100,-100,"-1,-1,-1",0,0,-127,0,0,0,78,82,91,70,81,56.21,12,-2.00,2.00,-1027.00,
-1,-100,-100,-100,"-1,-1,-1",0,0,-127,0,0,0,78,82,91,70,81,56.21,12,10.00,-2.00,-999.00,
-1,-100,-100,-100,"-1,-1,-1",0,0,-127,0,0,0,78,82,90,70,81,56.21,12,13.00,-6.00,-1029.00,
-1,-100,-100,-100,"-1,-1,-1",0,0,-127,0,0,0,78,82,90,70,81,56.23,12,-1.00,-11.00,-1011.00,
-1,-100,-100,-100,"-1,-1,-1",0,0,-127,0,0,0,78,82,89,70,81,56.18,12,-8.00,-5.00,-1004.00,
-1,-100,-100,-100,"-1,-1,-1",0,0,-127,0,0,0,78,82,89,70,81,56.16,12,15.00,2.00,-994.00,
-1,-100,-100,-100,"-1,-1,-1",0,0,-127,0,0,0,78,82,89,70,81,56.12,12,-13.00,-1.00,-1009.00,
-1,-100,-100,-100,"-1,-1,-1",0,0,-127,0,0,0,78,82,89,70,81,56.19,12,-7.00,-3.00,-1005.00,
-1,-100,-100,-100,"-1,-1,-1",-1,0,-127,0,0,0,78,82,90,70,81,56.21,12,-11.00,0.00,-1017.00,
-1,-100,-100,-100,"-1,-1,-1",-1,0,-127,0,0,0,79,82,90,70,81,56.18,13,-9.00,1.00,-1004.00,
-1,-100,-100,-100,"-1,-1,-1",0,0,-127,0,0,0,79,82,90,70,81,56.19,13,-2.00,11.00,-1015.00,
-1,-100,-100,-100,"-1,-1,-1",0,0,-127,0,0,0,79,82,90,70,81,56.16,13,-3.00,-6.00,-989.00,
-1,-100,-100,-100,"-1,-1,-1",0,0,-127,0,0,0,79,82,90,70,81,56.13,13,-10.00,4.00,-1011.00,
-1,-100,-100,-100,"-1,-1,-1",0,0,-127,0,0,0,79,82,90,70,81,56.15,13,-8.00,0.00,-1001.00,
-1,-100,-100,-100,"-1,-1,-1",0,0,-127,0,0,0,79,82,90,70,81,56.21,13,0.00,14.00,-1017.00,
-1,-100,-100,-100,"-1,-1,-1",0,0,-127,0,0,0,79,82,90,70,81,56.21,13,5.00,14.00,-1019.00,
-1,-100,-100,-100,"-1,-1,-1",0,0,-127,0,0,0,79,82,91,70,81,56.18,13,3.00,0.00,-994.00,
-1,-100,-100,-100,"-1,-1,-1",0,0,-127,0,0,0,79,82,91,70,81,56.20,13,6.00,5.00,-993.00,
-1,-100,-100,-100,"-1,-1,-1",0,0,-127,0,0,0,79,82,91,70,81,56.18,14,2.00,-13.00,-958.00,
-1,-100,-100,-100,"-1,-1,-1",0,0,-127,0,0,0,78,80,91,70,81,56.11,14,-4.00,1.00,-1004.00,
-1,-100,-100,-100,"-1,-1,-1",0,0,-127,0,0,0,78,80,91,70,81,56.14,14,-10.00,11.00,-1017.00,
-1,-100,-100,-100,"-1,-1,-1",0,0,-127,0,0,0,78,80,92,70,81,56.15,14,-25.00,20.00,-1004.00,
-1,-100,-100,-100,"-1,-1,-1",0,0,-127,0,0,0,78,80,92,70,81,56.15,14,-8.00,-8.00,-980.00,
-1,-100,-100,-100,"-1,-1,-1",0,0,-127,0,0,0,78,80,92,70,81,56.14,14,3.00,-12.00,-998.00,
-1,-100,-100,-100,"-1,-1,-1",0,0,-127,0,0,0,78,80,92,70,81,56.16,14,-2.00,-3.00,-989.00,
-1,-100,-100,-100,"-1,-1,-1",0,0,-127,0,0,0,78,80,92,70,81,56.15,14,-20.00,1.00,-1011.00,
-1,-100,-100,-100,"-1,-1,-1",0,0,-127,0,0,0,78,80,92,70,81,56.19,14,0.00,-6.00,-998.00,
-1,-100,-100,-100,"-1,-1,-1",0,0,-127,0,0,0,78,80,93,70,81,56.10,14,-13.00,2.00,-995.00,
-1,-100,-100,-100,"-1,-1,-1",0,0,-127,0,0,0,78,80,93,70,81,56.18,15,-3.00,16.00,-1005.00,
-1,-100,-100,-100,"-1,-1,-1",0,0,-127,0,0,0,78,81,93,70,81,56.20,15,-18.00,1.00,-999.00,
-1,-100,-100,-100,"-1,-1,-1",0,0,-127,0,0,0,78,81,93,70,81,56.24,15,1.00,3.00,-989.00,
-1,-100,-100,-100,"-1,-1,-1",0,0,-127,0,0,0,78,81,93,70,81,56.21,15,-19.00,0.00,-984.00,
-1,-100,-100,-100,"-1,-1,-1",0,0,-127,0,0,0,78,81,93,70,81,56.18,15,0.00,14.00,-977.00,
-1,-100,-100,-100,"-1,-1,-1",0,0,-127,0,0,0,78,81,93,70,81,56.21,15,-15.00,-4.00,-1007.00,
-1,-100,-100,-100,"-1,-1,-1",0,0,-127,0,0,0,78,81,92,70,81,56.13,15,6.00,-3.00,-996.00,
-1,-100,-100,-100,"-1,-1,-1",0,0,-127,0,0,0,78,81,92,70,81,56.16,15,-8.00,0.00,-982.00,
-1,-100,-100,-100,"-1,-1,-1",0,0,-127,0,0,0,78,81,92,70,81,56.18,15,-7.00,7.00,-1007.00,
-1,-100,-100,-100,"-1,-1,-1",0,0,-127,0,0,0,78,81,92,70,81,56.18,15,6.00,-3.00,-1005.00,
-1,-100,-100,-100,"-1,-1,-1",0,0,-127,0,0,0,78,81,91,70,81,56.20,16,-19.00,11.00,-1018.00,
-1,-100,-100,-100,"-1,-1,-1",0,0,-127,0,0,0,77,81,91,70,81,56.24,16,-5.00,-6.00,-993.00,
-1,-100,-100,-100,"-1,-1,-1",0,0,-127,0,0,0,77,81,91,70,81,56.17,16,16.00,-5.00,-990.00,
-1,-100,-100,-100,"-1,-1,-1",0,0,-127,0,0,0,77,81,90,70,81,56.15,16,-5.00,-4.00,-1002.00,
-1,-100,-100,-100,"-1,-1,-1",0,0,-127,0,0,0,77,81,90,70,81,56.19,16,12.00,-29.00,-984.00,
-1,-100,-100,-100,"-1,-1,-1",0,0,-127,0,0,0,77,81,90,70,81,56.15,16,1.00,-13.00,-1001.00,
-1,-100,-100,-100,"-1,-1,-1",0,0,-127,0,0,0,77,81,90,70,81,56.21,16,-7.00,-1.00,-1012.00,
-1,-100,-100,-100,"-1,-1,-1",0,0,-127,0,0,0,77,81,90,70,81,56.13,16,13.00,-16.00,-999.00,
-1,-100,-100,-100,"-1,-1,-1",0,0,-127,0,0,0,77,81,90,70,81,56.20,16,-8.00,6.00,-1007.00,
-1,-100,-100,-100,"-1,-1,-1",0,0,-127,0,0,0,77,81,90,70,81,56.21,16,7.00,-14.00,-1002.00,
-1,-100,-100,-100,"-1,-1,-1",0,0,-127,0,0,0,77,81,90,70,81,56.15,17,1.00,-13.00,-999.00,
-1,-100,-100,-100,"-1,-1,-1",0,0,-127,0,0,0,78,81,89,70,81,56.14,17,3.00,-10.00,-1000.00,
-1,-100,-100,-100,"-1,-1,-1",0,0,-127,0,0,0,78,81,90,70,81,56.15,17,3.00,-11.00,-1003.00,
-1,-100,-100,-100,"-1,-1,-1",0,0,-127,0,0,0,78,81,89,70,81,56.14,17,-6.00,8.00,-998.00,
-1,-100,-100,-100,"-1,-1,-1",0,0,-127,0,0,0,78,81,89,70,81,56.11,17,-16.00,9.00,-1022.00,
-1,-100,-100,-100,"-1,-1,-1",0,0,-127,0,0,0,78,81,89,70,81,56.15,17,6.00,-7.00,-995.00,
-1,-100,-100,-100,"-1,-1,-1",0,0,-127,0,0,0,78,81,89,70,81,56.17,17,12.00,-3.00,-1006.00,
-1,-100,-100,-100,"-1,-1,-1",0,0,-127,0,0,0,78,81,89,70,81,56.12,17,-5.00,3.00,-1016.00,
-1,-100,-100,-100,"-1,-1,-1",0,0,-127,0,0,0,78,81,89,70,81,56.19,17,-1.00,-27.00,-982.00,
-1,-100,-100,-100,"-1,-1,-1",0,0,-127,0,0,0,78,81,89,70,81,56.16,17,-1.00,11.00,-997.00,
-1,-100,-100,-100,"-1,-1,-1",0,0,-127,0,0,0,78,81,89,70,81,56.12,18,9.00,-26.00,-990.00,
-1,-100,-100,-100,"-1,-1,-1",0,0,-127,0,0,0,78,82,89,70,81,56.13,18,-15.00,2.00,-1002.00,
-1,-100,-100,-100,"-1,-1,-1",0,0,-127,0,0,0,78,82,89,70,81,56.15,18,-12.00,13.00,-1005.00,
-1,-100,-100,-100,"-1,-1,-1",0,0,-127,0,0,0,78,82,89,70,81,56.16,18,-13.00,3.00,-1009.00,
-1,-100,-100,-100,"-1,-1,-1",0,0,-127,0,0,0,78,82,89,70,81,56.17,18,6.00,3.00,-1022.00,
-1,-100,-100,-100,"-1,-1,-1",0,0,-127,0,0,0,78,82,89,70,81,56.11,18,0.00,2.00,-1003.00,
-1,-100,-100,-100,"-1,-1,-1",0,0,-127,0,0,0,78,82,89,70,81,56.16,18,-6.00,-26.00,-969.00,
-1,-100,-100,-100,"-1,-1,-1",0,0,-127,0,0,0,78,82,89,70,81,56.12,18,-18.00,-4.00,-998.00,
-1,-100,-100,-100,"-1,-1,-1",0,0,-127,0,0,0,78,82,89,70,81,56.17,18,7.00,-2.00,-1004.00,
-1,-100,-100,-100,"-1,-1,-1",0,0,-127,0,0,0,78,82,89,70,81,56.18,18,-13.00,-19.00,-985.00,
-1,-100,-100,-100,"-1,-1,-1",0,0,-127,0,0,0,78,82,89,70,81,56.20,19,9.00,-7.00,-985.00,
-1,-100,-100,-100,"-1,-1,-1",0,0,-127,0,0,0,78,82,89,70,81,56.16,19,18.00,-7.00,-991.00,
-1,-100,-100,-100,"-1,-1,-1",0,0,-127,0,0,0,78,82,89,70,81,56.21,19,1.00,-3.00,-1007.00,
-1,-100,-100,-100,"-1,-1,-1",0,0,-127,0,0,0,78,82,89,70,81,56.14,19,3.00,9.00,-1015.00,
-1,-100,-100,-100,"-1,-1,-1",0,0,-127,0,0,0,78,82,89,70,81,56.12,19,13.00,-3.00,-1016.00,
-1,-100,-100,-100,"-1,-1,-1",0,0,-127,0,0,0,78,82,89,70,81,56.18,19,24.00,-5.00,-1000.00,
-1,-100,-100,-100,"-1,-1,-1",0,0,-127,0,0,0,78,82,88,70,81,56.18,19,1.00,-1.00,-1009.00,
-1,-100,-100,-100,"-1,-1,-1",0,0,-127,0,0,0,78,82,89,70,81,56.13,19,9.00,8.00,-1019.00,
-1,-100,-100,-100,"-1,-1,-1",0,0,-127,0,0,0,78,82,89,70,81,56.21,19,6.00,-1.00,-1008.00,
-1,-100,-100,-100,"-1,-1,-1",0,0,-127,0,0,0,78,82,89,70,81,56.15,19,-9.00,-4.00,-993.00,
-1,-100,-100,-100,"-1,-1,-1",0,0,-127,0,0,0,78,82,89,70,81,56.17,20,13.00,-16.00,-995.00,
-1,-100,-100,-100,"-1,-1,-1",0,0,-127,0,0,0,77,82,89,70,81,56.26,20,-12.00,-6.00,-989.00,
-1,-100,-100,-100,"-1,-1,-1",0,0,-127,0,0,0,77,82,89,70,81,56.19,20,-2.00,4.00,-1024.00,
-1,-100,-100,-100,"-1,-1,-1",0,0,-127,0,0,0,77,82,89,70,81,56.17,20,0.00,-19.00,-986.00,
-1,-100,-100,-100,"-1,-1,-1",0,0,-127,0,0,0,77,82,90,70,81,56.14,20,3.00,-2.00,-1004.00,
-1,-100,-100,-100,"-1,-1,-1",0,0,-127,0,0,0,77,82,90,70,81,56.20,20,-6.00,-6.00,-1007.00,
-1,-100,-100,-100,"-1,-1,-1",0,0,-127,0,0,0,77,82,90,70,81,56.21,20,5.00,-22.00,-989.00,
-1,-100,-100,-100,"-1,-1,-1",0,0,-127,0,0,0,77,82,90,70,81,56.18,20,-6.00,-3.00,-1001.00,
-1,-100,-100,-100,"-1,-1,-1",0,0,-127,0,0,0,77,82,90,70,81,56.18,20,15.00,-18.00,-998.00,
-1,-100,-100,-100,"-1,-1,-1",0,0,-127,0,0,0,77,82,90,70,81,56.17,20,-12.00,-10.00,-994.00,
-1,-100,-100,-100,"-1,-1,-1",0,0,-127,0,0,0,77,82,90,70,81,56.23,21,0.00,7.00,-1018.00,
-1,-100,-100,-100,"-1,-1,-1",0,0,-127,0,0,0,78,82,90,70,81,56.26,21,6.00,-3.00,-1005.00,
-1,-100,-100,-100,"-1,-1,-1",0,0,-127,0,0,0,78,82,90,70,81,56.21,21,-6.00,-7.00,-990.00,
-1,-100,-100,-100,"-1,-1,-1",0,0,-127,0,0,0,78,82,90,70,81,56.16,21,0.00,-15.00,-1003.00,
-1,-100,-100,-100,"-1,-1,-1",0,0,-127,0,0,0,78,82,90,70,81,56.18,21,-15.00,-4.00,-1000.00,
-1,-100,-100,-100,"-1,-1,-1",0,0,-127,0,0,0,78,82,90,70,81,56.24,21,3.00,-19.00,-990.00,
-1,-100,-100,-100,"-1,-1,-1",0,0,-127,0,0,0,78,82,90,70,81,56.24,21,25.00,-31.00,-993.00,
-1,-100,-100,-100,"-1,-1,-1",0,0,-127,0,0,0,78,82,90,70,81,56.20,21,-16.00,-1.00,-997.00,
-1,-100,-100,-100,"-1,-1,-1",0,0,-127,0,0,0,78,82,90,70,81,56.21,21,0.00,-2.00,-995.00,
-1,-100,-100,-100,"-1,-1,-1",0,0,-127,0,0,0,78,82,90,70,81,56.21,21,6.00,-23.00,-991.00,
-1,-100,-100,-100,"-1,-1,-1",0,0,-127,0,0,0,78,82,90,70,81,56.24,22,3.00,-5.00,-1003.00,
-1,-100,-100,-100,"-1,-1,-1",0,0,-127,0,0,0,79,82,90,70,81,56.25,22,8.00,-6.00,-997.00,
-1,-100,-100,-100,"-1,-1,-1",0,0,-127,0,0,0,79,82,90,70,81,56.21,22,-7.00,-4.00,-999.00,
-1,-100,-100,-100,"-1,-1,-1",0,0,-127,0,0,0,79,82,90,70,81,56.15,22,16.00,-24.00,-981.00,
-1,-100,-100,-100,"-1,-1,-1",0,0,-127,0,0,0,79,82,90,70,81,56.20,22,20.00,-32.00,-985.00,
-1,-100,-100,-100,"-1,-1,-1",0,0,-127,0,0,0,79,82,90,70,81,56.16,22,-10.00,0.00,-1008.00,
-1,-100,-100,-100,"-1,-1,-1",0,0,-127,0,0,0,79,82,90,70,81,56.16,22,8.00,-15.00,-994.00,
-1,-100,-100,-100,"-1,-1,-1",0,0,-127,0,0,0,79,82,90,70,81,56.18,22,10.00,-16.00,-982.00,
-1,-100,-100,-100,"-1,-1,-1",0,0,-127,0,0,0,79,82,90,70,81,56.18,22,9.00,-2.00,-989.00,
-1,-100,-100,-100,"-1,-1,-1",0,0,-127,0,0,0,79,82,89,70,81,56.22,22,-9.00,-5.00,-1019.00,
-1,-100,-100,-100,"-1,-1,-1",0,0,-127,0,0,0,79,82,89,70,81,56.19,23,6.00,-18.00,-988.00,
-1,-100,-100,-100,"-1,-1,-1",0,0,-127,0,0,0,78,81,89,70,81,56.22,23,2.00,2.00,-997.00,
-1,-100,-100,-100,"-1,-1,-1",0,0,-127,0,0,0,78,81,89,70,81,56.25,23,-6.00,1.00,-1016.00,
-1,-100,-100,-100,"-1,-1,-1",0,0,-127,0,0,0,78,81,89,70,81,56.18,23,0.00,-1.00,-1006.00,
-1,-100,-100,-100,"-1,-1,-1",0,0,-127,0,0,0,78,81,89,70,81,56.20,23,-6.00,-5.00,-1000.00,
-1,-100,-100,-100,"-1,-1,-1",0,0,-127,0,0,0,78,81,89,70,81,56.27,23,1.00,-5.00,-997.00,
-1,-100,-100,-100,"-1,-1,-1",0,0,-127,0,0,0,78,81,90,70,81,56.18,23,10.00,-19.00,-993.00,
-1,-100,-100,-100,"-1,-1,-1",0,0,-127,0,0,0,78,81,90,70,81,56.27,23,3.00,-14.00,-1001.00,
-1,-100,-100,-100,"-1,-1,-1",0,0,-127,0,0,0,78,81,90,70,81,56.23,23,1.00,-8.00,-974.00,
-1,-100,-100,-100,"-1,-1,-1",0,0,-127,0,0,0,78,81,90,70,81,56.18,23,4.00,-4.00,-999.00,
-1,-100,-100,-100,"-1,-1,-1",0,0,-127,0,0,0,78,81,90,70,81,56.20,24,8.00,-16.00,-1020.00,
-1,-100,-100,-100,"-1,-1,-1",0,0,-127,0,0,0,78,82,90,70,81,56.18,24,-7.00,2.00,-992.00,
-1,-100,-100,-100,"-1,-1,-1",0,0,-127,0,0,0,78,82,91,70,81,56.24,24,-1.00,-20.00,-990.00,
-1,-100,-100,-100,"-1,-1,-1",0,0,-127,0,0,0,78,82,91,70,81,56.20,24,14.00,-7.00,-1004.00,
-1,-100,-100,-100,"-1,-1,-1",0,0,-127,0,0,0,78,82,91,70,81,56.21,24,5.00,-4.00,-1006.00,
-1,-100,-100,-100,"-1,-1,-1",0,0,-127,0,0,0,78,82,91,70,81,56.20,24,-3.00,-10.00,-1007.00,
-1,-100,-100,-100,"-1,-1,-1",0,0,-127,0,0,0,78,82,91,70,81,56.19,24,-7.00,-13.00,-1002.00,
-1,-100,-100,-100,"-1,-1,-1",0,0,-127,0,0,0,78,82,91,70,81,56.19,24,-3.00,2.00,-1007.00,
-1,-100,-100,-100,"-1,-1,-1",0,0,-127,0,0,0,78,82,91,70,81,56.18,24,-6.00,-12.00,-999.00,
-1,-100,-100,-100,"-1,-1,-1",0,0,-127,0,0,0,78,82,91,70,81,56.23,24,7.00,-8.00,-1007.00,
-1,-100,-100,-100,"-1,-1,-1",0,0,-127,0,0,0,78,82,92,70,81,56.15,25,16.00,-36.00,-1000.00,
-1,-100,-100,-100,"-1,-1,-1",0,0,-125,0,0,0,79,82,92,70,81,56.15,25,14.00,9.00,-998.00,
-1,-100,-100,-100,"-1,-1,-1",0,0,-120,0,0,0,79,82,92,70,81,56.15,25,-5.00,-10.00,-987.00,
-1,-100,-100,-100,"-1,-1,-1",0,0,-114,0,0,0,79,82,92,70,81,56.14,25,9.00,-4.00,-976.00,
-1,-100,-100,-100,"-1,-1,-1",0,0,-108,0,0,0,79,82,92,70,81,56.17,25,3.00,-8.00,-1005.00,
-1,-100,-100,-100,"-1,-1,-1",0,0,-102,0,0,0,79,82,92,70,81,56.15,25,-4.00,-11.00,-997.00,
-1,-100,-100,-100,"-1,-1,-1",0,0,-96,0,0,0,79,82,92,70,81,56.15,25,0.00,3.00,-1008.00,
-1,-100,-100,-100,"-1,-1,-1",0,0,-90,0,0,0,79,82,92,70,81,56.23,25,2.00,-8.00,-994.00,
-1,-100,-100,-100,"-1,-1,-1",0,0,-85,0,0,0,79,82,91,70,81,56.19,25,-3.00,-10.00,-988.00,
-1,-100,-100,-100,"-1,-1,-1",0,0,-79,0,0,0,79,82,91,70,81,56.16,25,-9.00,0.00,-980.00,
-1,-100,-100,-100,"-1,-1,-1",0,0,-73,0,0,0,79,82,91,70,81,56.14,26,0.00,-7.00,-993.00,
-1,-100,-100,-100,"-1,-1,-1",0,0,-62,0,0,0,79,82,90,70,81,56.17,26,-4.00,-11.00,-985.00,
-1,-100,-100,-100,"-1,-1,-1",0,0,-56,0,0,0,79,82,90,70,81,56.14,26,-12.00,-10.00,-993.00,
-1,-100,-100,-100,"-1,-1,-1",0,0,-50,0,0,0,79,82,90,70,81,56.12,26,6.00,-8.00,-1012.00,
-1,-100,-100,-100,"-1,-1,-1",0,0,-44,0,0,0,79,82,89,70,80,56.09,26,2.00,-10.00,-1004.00,
-1,-100,-100,-100,"-1,-1,-1",0,0,-38,0,0,0,79,82,89,70,80,56.13,26,-6.00,6.00,-991.00,
-1,-100,-100,-100,"-1,-1,-1",0,0,-32,0,0,0,79,82,88,70,80,56.19,26,0.00,-9.00,-986.00,
-1,-100,-100,-100,"-1,-1,-1",0,0,-26,0,0,0,79,82,88,70,80,56.09,26,2.00,4.00,-1003.00,
-1,-100,-100,-100,"-1,-1,-1",0,0,-20,0,0,0,79,82,88,70,80,56.14,26,2.00,3.00,-1006.00,
-1,-100,-100,-100,"-1,-1,-1",0,0,-14,0,0,0,79,82,87,70,80,56.13,27,-2.00,3.00,-1009.00,
-1,-100,-100,-100,"-1,-1,-1",0,0,-9,0,0,0,79,82,87,60,80,56.14,27,14.00,-13.00,-1021.00,
-1,-100,-100,-100,"-1,-1,-1",0,0,-3,0,0,0,78,82,87,60,80,56.12,27,-8.00,0.00,-1027.00,
-1,-100,-100,-100,"-1,-1,-1",0,0,2,0,0,0,78,82,87,60,80,56.05,27,-7.00,-10.00,-1010.00,
-1,-100,-100,-100,"-1,-1,-1",0,0,8,0,0,0,78,82,87,60,80,56.08,27,-13.00,-8.00,-1006.00,
-1,-100,-100,-100,"-1,-1,-1",0,0,14,0,0,0,78,82,87,60,80,56.09,27,-4.00,9.00,-1013.00,
-1,-100,-100,-100,"-1,-1,-1",0,0,20,0,0,0,78,82,87,60,80,56.09,27,2.00,-16.00,-995.00,
-1,-100,-100,-100,"-1,-1,-1",0,0,26,0,0,0,78,82,87,60,80,56.14,27,-9.00,-24.00,-1019.00,
-1,-100,-100,-100,"-1,-1,-1",0,1,32,0,0,0,78,82,87,60,80,56.15,27,-21.00,-3.00,-987.00,
-1,-100,-100,-100,"-1,-1,-1",0,0,38,0,0,0,78,82,87,60,80,56.12,27,-20.00,-21.00,-985.00,
-1,-100,-100,-100,"-1,-1,-1",0,0,44,0,0,0,78,82,87,70,80,56.09,28,-6.00,-6.00,-1014.00,
-1,-100,-100,-100,"-1,-1,-1",0,1,51,0,0,0,78,82,87,70,80,56.14,28,-4.00,7.00,-1000.00,
-1,-100,-100,-100,"-1,-1,-1",0,1,56,0,0,0,78,83,87,70,80,56.14,28,-21.00,-3.00,-1002.00,
-1,-100,-100,-100,"-1,-1,-1",0,0,62,0,0,0,78,83,87,70,80,56.15,28,0.00,2.00,-1014.00,
-1,-100,-100,-100,"-1,-1,-1",0,0,69,0,0,0,78,83,87,70,80,56.04,28,3.00,-14.00,-994.00,
-1,-100,-100,-100,"-1,-1,-1",0,0,75,0,0,0,78,83,87,70,80,56.09,28,-22.00,-6.00,-1003.00,
-1,-100,-100,-100,"-1,-1,-1",-1,0,81,0,0,0,78,83,87,70,80,56.14,28,-17.00,3.00,-1000.00,
-1,-100,-100,-100,"-1,-1,-1",-1,0,87,0,0,0,78,83,88,70,80,56.12,28,2.00,-4.00,-999.00,
-1,-100,-100,-100,"-1,-1,-1",0,0,93,0,0,0,78,83,87,70,80,56.13,28,-8.00,-1.00,-1013.00,
-1,-100,-100,-100,"-1,-1,-1",0,0,100,0,0,0,78,83,87,70,80,56.17,28,-8.00,-6.00,-991.00,
-1,-100,-100,-100,"-1,-1,-1",0,0,106,0,0,0,78,83,88,70,80,56.20,29,-7.00,-19.00,-990.00,
-1,-100,-100,-100,"-1,-1,-1",0,0,112,0,0,0,78,83,88,70,80,56.18,29,-18.00,-12.00,-985.00,
-1,-100,-100,-100,"-1,-1,-1",0,0,118,0,0,0,79,83,88,70,80,56.20,29,-18.00,0.00,-997.00,
-1,-100,-100,-100,"-1,-1,-1",-1,0,124,0,0,0,79,83,88,70,80,56.13,29,0.00,0.00,-1001.00,
-1,-100,-100,-100,"-1,-1,-1",-1,0,130,0,0,0,79,83,88,70,80,56.14,29,-7.00,2.00,-998.00,
-1,-100,-100,-100,"-1,-1,-1",0,0,136,0,0,0,79,83,88,70,80,56.16,29,-1.00,2.00,-1000.00,
-1,-100,-100,-100,"-1,-1,-1",0,0,142,0,0,0,79,83,88,70,80,56.17,29,2.00,1.00,-1007.00,
-1,-100,-100,-100,"-1,-1,-1",0,0,148,0,0,0,79,83,88,70,80,56.11,29,-23.00,2.00,-1004.00,
-1,-100,-100,-100,"-1,-1,-1",0,0,154,0,0,0,79,83,88,70,80,56.09,29,-2.00,4.00,-1001.00,
-1,-100,-100,-100,"-1,-1,-1",0,0,160,0,0,0,79,83,88,70,80,56.05,29,-4.00,-2.00,-999.00,
-1,-100,-100,-100,"-1,-1,-1",0,0,166,0,0,0,79,83,89,70,80,55.91,30,-12.00,0.00,-1001.00,
-1,-100,-100,-100,"-1,-1,-1",0,0,173,0,0,0,79,83,88,70,80,55.87,30,-14.00,19.00,-1019.00,
-1,-100,-100,-100,"-1,-1,-1",0,0,179,0,0,0,78,82,89,60,80,55.84,30,-9.00,13.00,-1019.00,
-1,-100,-100,-100,"-1,-1,-1",0,0,-174,0,0,0,78,82,89,70,80,55.96,30,-7.00,16.00,-1027.00,
-1,-100,-100,-100,"-1,-1,-1",0,0,-168,0,0,0,78,82,89,70,79,56.01,30,-6.00,15.00,-1001.00,
-1,-100,-100,-100,"-1,-1,-1",0,0,-162,0,0,0,78,82,89,70,79,56.07,30,-2.00,7.00,-1000.00,
-1,-100,-100,-100,"-1,-1,-1",0,0,-156,0,0,0,78,82,90,70,79,56.12,30,1.00,-2.00,-995.00,
-1,-100,-100,-100,"-1,-1,-1",0,0,-150,0,0,0,78,82,90,70,79,56.14,30,-13.00,15.00,-1015.00,
-1,-100,-100,-100,"-1,-1,-1",0,0,-144,0,0,0,78,82,90,70,79,56.15,30,-9.00,7.00,-999.00,
-1,-100,-100,-100,"-1,-1,-1",0,0,-140,0,0,0,78,82,91,60,79,56.18,30,-3.00,2.00,-1021.00,
-1,-100,-100,-100,"-1,-1,-1",0,0,-137,0,0,0,78,82,91,60,79,56.13,31,-1.00,0.00,-1015.00,
-1,-100,-100,-100,"-1,-1,-1",0,0,-134,0,0,0,78,82,92,60,79,56.18,31,-6.00,1.00,-1007.00,
-1,-100,-100,-100,"-1,-1,-1",0,0,-132,0,0,0,78,82,93,70,79,56.24,31,-1.00,-11.00,-999.00,
-1,-100,-100,-100,"-1,-1,-1",0,0,-131,0,0,0,78,82,94,70,79,56.26,31,-14.00,-1.00,-1015.00,
-1,-100,-100,-100,"-1,-1,-1",0,0,-130,0,0,0,78,82,95,70,79,56.29,31,9.00,6.00,-996.00,
-1,-100,-100,-100,"-1,-1,-1",0,0,-129,0,0,0,78,82,95,70,79,56.27,31,3.00,5.00,-1014.00,
-1,-100,-100,-100,"-1,-1,-1",0,0,-129,0,0,0,78,82,96,70,79,56.28,31,5.00,0.00,-984.00,
-1,-100,-100,-100,"-1,-1,-1",0,0,-128,0,0,0,78,82,97,70,79,56.25,31,26.00,-28.00,-1001.00,
-1,-100,-100,-100,"-1,-1,-1",0,0,-122,0,0,0,78,82,97,70,79,56.33,31,-1.00,4.00,-969.00,
-1,-100,-100,-100,"-1,-1,-1",0,0,-116,0,0,0,78,82,98,70,79,56.33,31,0.00,9.00,-982.00,
-1,-100,-100,-100,"-1,-1,-1",0,0,-111,0,0,0,78,82,98,70,79,56.37,32,-5.00,-7.00,-990.00,
-1,-100,-100,-100,"-1,-1,-1",0,0,-104,0,0,0,78,82,99,70,79,56.33,32,4.00,7.00,-989.00,
-1,-100,-100,-100,"-1,-1,-1",0,0,-98,0,0,0,77,82,99,70,79,56.44,32,4.00,4.00,-994.00,
-1,-100,-100,-100,"-1,-1,-1",0,0,-92,0,0,0,77,82,99,70,79,56.42,32,0.00,6.00,-990.00,
-1,-100,-100,-100,"-1,-1,-1",0,0,-86,0,0,0,77,82,100,70,79,56.39,32,-9.00,1.00,-983.00,
-1,-100,-100,-100,"-1,-1,-1",0,0,-80,0,0,0,77,82,100,70,79,56.51,32,0.00,0.00,-1004.00,
-1,-100,-100,-100,"-1,-1,-1",0,0,-74,0,0,0,77,82,100,70,79,56.48,32,-1.00,-1.00,-995.00,
-1,-100,-100,-100,"-1,-1,-1",0,0,-69,0,0,0,77,82,100,70,79,56.48,32,6.00,0.00,-986.00,
-1,-100,-100,-100,"-1,-1,-1",0,0,-63,0,0,0,77,82,100,70,79,56.49,32,5.00,-2.00,-992.00,
-1,-100,-100,-100,"-1,-1,-1",0,0,-57,0,0,0,77,82,100,70,79,56.46,32,-4.00,-3.00,-989.00,
-1,-100,-100,-100,"-1,-1,-1",0,0,-53,0,0,0,77,82,100,70,79,56.51,33,-12.00,-2.00,-999.00,
-1,-100,-100,-100,"-1,-1,-1",0,0,-50,0,0,0,77,82,100,70,79,56.43,33,12.00,0.00,-992.00,
-1,-100,-100,-100,"-1,-1,-1",0,0,-47,0,0,0,78,82,100,70,79,56.41,33,12.00,-5.00,-1001.00,
-1,-100,-100,-100,"-1,-1,-1",0,0,-45,0,0,0,78,82,100,70,79,56.46,33,0.00,0.00,-988.00,
-1,-100,-100,-100,"-1,-1,-1",0,0,-43,0,0,0,78,82,100,70,79,56.48,33,3.00,-6.00,-1008.00,
-1,-100,-100,-100,"-1,-1,-1",0,0,-42,0,0,0,78,82,100,70,79,56.39,33,10.00,-28.00,-1000.00,
-1,-100,-100,-100,"-1,-1,-1",0,0,-41,0,0,0,78,82,100,70,79,56.42,33,5.00,-7.00,-992.00,
-1,-100,-100,-100,"-1,-1,-1",0,0,-41,0,0,0,78,82,100,70,79,56.50,33,8.00,3.00,-1010.00,
-1,-100,-100,-100,"-1,-1,-1",0,0,-41,0,0,0,78,82,100,70,79,56.42,33,11.00,-5.00,-994.00,
-1,-100,-100,-100,"-1,-1,-1",-2,0,-41,0,0,0,78,82,100,70,79,56.32,33,0.00,-9.00,-1014.00,
-1,-100,-100,-100,"-1,-1,-1",-7,0,-41,0,0,0,78,82,100,70,79,56.29,34,15.00,-23.00,-988.00,
-1,-100,-100,-100,"-1,-1,-1",-8,0,-41,1,-1,0,78,82,101,70,79,56.35,34,-22.00,-22.00,-986.00,
-1,-100,-100,-100,"-1,-1,-1",-8,0,-41,2,-2,0,79,82,101,70,79,56.29,34,0.00,-4.00,-1002.00,
-1,-100,-100,-100,"-1,-1,-1",-8,0,-41,3,-3,0,79,82,101,70,79,56.40,34,-20.00,0.00,-998.00,
-1,-100,-100,-100,"-1,-1,-1",-7,0,-41,4,-3,0,79,82,99,70,78,56.39,34,-34.00,7.00,-1009.00,
-1,-100,-100,-100,"-1,-1,-1",-7,1,-41,4,-4,0,79,82,101,70,78,56.29,34,-28.00,-14.00,-1009.00,
-1,-100,-100,-100,"-1,-1,-1",-6,1,-41,5,-4,0,79,82,100,70,78,56.32,34,-39.00,-14.00,-994.00,
-1,-100,-100,-100,"-1,-1,-1",-5,1,-41,5,-4,0,79,82,100,70,78,56.35,34,-42.00,-29.00,-986.00,
-1,-100,-100,-100,"-1,-1,-1",-3,1,-41,5,-4,0,79,82,98,70,78,56.28,34,-52.00,-20.00,-990.00,
-1,-100,-100,-100,"-1,-1,-1",0,0,-40,5,-4,0,79,82,97,70,78,56.28,34,-55.00,4.00,-1001.00,
-1,-100,-100,-100,"-1,-1,-1",1,0,-40,4,-4,0,79,82,131,70,78,56.25,35,-60.00,-8.00,-997.00,
-1,-100,-100,-100,"-1,-1,-1",3,0,-40,4,-3,0,79,82,165,70,78,56.26,35,-69.00,-21.00,-979.00,
-1,-100,-100,-100,"-1,-1,-1",2,0,-41,3,-2,0,78,83,163,70,78,56.37,35,-40.00,-7.00,-980.00,
-1,-100,-100,-100,"-1,-1,-1",0,0,-41,2,-2,0,78,83,164,70,78,56.33,35,-56.00,-8.00,-1016.00,
-1,-100,-100,-100,"-1,-1,-1",0,0,-41,2,-1,0,78,83,163,70,78,56.39,35,-50.00,-13.00,-999.00,
-1,-100,-100,-100,"-1,-1,-1",-1,0,-41,2,-1,0,78,83,163,70,78,56.36,35,-56.00,2.00,-1033.00,
-1,-100,-100,-100,"-1,-1,-1",-1,0,-41,2,-1,0,78,83,163,70,78,56.40,35,-52.00,-15.00,-993.00,
-1,-100,-100,-100,"-1,-1,-1",0,0,-41,2,-1,0,78,83,164,70,78,56.39,35,-46.00,-10.00,-1022.00,
-1,-100,-100,-100,"-1,-1,-1",0,0,-41,2,-1,0,78,83,162,70,78,56.37,35,-32.00,-8.00,-1019.00,
-1,-100,-100,-100,"-1,-1,-1",0,0,-41,2,-2,0,78,83,163,70,78,56.32,35,-50.00,0.00,-1010.00,
-1,-100,-100,-100,"-1,-1,-1",1,-1,-41,2,-2,0,78,83,163,70,78,56.34,36,-56.00,-8.00,-1029.00,
-1,-100,-100,-100,"-1,-1,-1",5,0,-41,1,-1,0,78,83,165,70,78,56.34,36,-36.00,-11.00,-990.00,
-1,-100,-100,-100,"-1,-1,-1",3,1,-41,0,-1,0,77,82,164,70,78,56.32,36,-23.00,-16.00,-992.00,
-1,-100,-100,-100,"-1,-1,-1",1,0,-41,0,0,0,77,82,165,70,78,56.33,36,-20.00,-19.00,-1004.00,
-1,-100,-100,-100,"-1,-1,-1",0,0,-41,0,0,0,77,82,164,70,78,56.32,36,-24.00,-17.00,-1003.00,
-1,-100,-100,-100,"-1,-1,-1",0,0,-41,0,0,0,77,82,165,70,78,56.38,36,-23.00,-11.00,-999.00,
-1,-100,-100,-100,"-1,-1,-1",0,0,-41,0,0,0,77,82,164,70,78,56.40,36,-23.00,-16.00,-975.00,
-1,-100,-100,-100,"-1,-1,-1",1,0,-41,0,0,0,77,82,166,70,78,56.37,36,-20.00,1.00,-1008.00,
-1,-100,-100,-100,"-1,-1,-1",1,0,-41,0,0,0,77,82,166,70,78,56.37,36,-20.00,-13.00,-991.00,
-1,-100,-100,-100,"-1,-1,-1",1,0,-41,0,0,0,77,82,166,70,78,56.41,36,-24.00,-3.00,-1003.00,
-1,-100,-100,-100,"-1,-1,-1",1,0,-41,0,0,0,77,82,165,70,78,56.34,37,-15.00,-33.00,-981.00,
-1,-100,-100,-100,"-1,-1,-1",1,0,-41,0,0,0,77,82,166,70,78,56.32,37,3.00,-11.00,-1009.00,
-1,-100,-100,-100,"-1,-1,-1",1,0,-41,0,0,0,79,83,165,70,78,56.36,37,-11.00,-12.00,-988.00,
-1,-100,-100,-100,"-1,-1,-1",1,0,-41,0,0,0,79,83,165,70,78,56.32,37,-4.00,-16.00,-983.00,
-1,-100,-100,-100,"-1,-1,-1",1,0,-41,0,0,0,79,83,165,70,78,56.41,37,-6.00,-4.00,-994.00,
-1,-100,-100,-100,"-1,-1,-1",1,0,-41,0,0,0,79,83,164,70,78,56.40,37,-18.00,0.00,-1007.00,
-1,-100,-100,-100,"-1,-1,-1",1,0,-41,0,0,0,79,83,164,70,78,56.39,37,-7.00,-33.00,-980.00,
-1,-100,-100,-100,"-1,-1,-1",1,0,-41,0,0,0,79,83,164,70,78,56.34,37,-5.00,-16.00,-976.00,
-1,-100,-100,-100,"-1,-1,-1",1,0,-41,0,0,0,79,83,164,70,78,56.42,37,4.00,16.00,-1027.00,
-1,-100,-100,-100,"-1,-1,-1",1,0,-41,0,0,0,79,83,163,70,78,56.34,38,2.00,9.00,-1022.00,
-1,-100,-100,-100,"-1,-1,-1",1,0,-41,0,0,0,79,83,164,70,78,56.35,38,6.00,-15.00,-989.00,
-1,-100,-100,-100,"-1,-1,-1",0,0,-41,0,0,0,79,83,164,70,78,56.34,38,12.00,-5.00,-1013.00,
-1,-100,-100,-100,"-1,-1,-1",1,0,-41,0,0,0,78,82,163,70,78,56.35,38,10.00,2.00,-1019.00,
-1,-100,-100,-100,"-1,-1,-1",0,0,-41,0,0,0,78,82,164,70,78,56.38,38,6.00,-5.00,-993.00,
-1,-100,-100,-100,"-1,-1,-1",0,0,-41,0,0,0,78,82,164,70,78,56.32,38,-13.00,-6.00,-992.00,
-1,-100,-100,-100,"-1,-1,-1",0,0,-41,0,0,0,78,82,164,70,78,56.37,38,-11.00,-5.00,-1019.00,
-1,-100,-100,-100,"-1,-1,-1",0,0,-41,0,0,0,78,82,164,70,78,56.36,38,0.00,-19.00,-997.00,
-1,-100,-100,-100,"-1,-1,-1",0,0,-41,0,0,0,78,82,165,70,78,56.34,38,0.00,1.00,-1002.00,
-1,-100,-100,-100,"-1,-1,-1",0,0,-41,0,0,0,78,82,163,70,78,56.38,38,14.00,10.00,-1024.00,
-1,-100,-100,-100,"-1,-1,-1",0,0,-41,0,0,0,78,82,164,70,78,56.36,39,7.00,-12.00,-985.00,
-1,-100,-100,-100,"-1,-1,-1",0,0,-41,0,0,0,78,82,163,70,78,56.38,39,-4.00,-1.00,-1012.00,
-1,-100,-100,-100,"-1,-1,-1",0,0,-41,0,0,0,78,82,165,70,78,56.34,39,3.00,-37.00,-988.00,
-1,-100,-100,-100,"-1,-1,-1",0,0,-41,0,0,0,79,82,164,70,78,56.38,39,11.00,-24.00,-996.00,
-1,-100,-100,-100,"-1,-1,-1",0,0,-41,0,0,0,79,82,163,70,78,56.40,39,6.00,-6.00,-990.00,
-1,-100,-100,-100,"-1,-1,-1",0,0,-41,0,0,0,79,82,164,70,78,56.39,39,0.00,-15.00,-1000.00,
-1,-100,-100,-100,"-1,-1,-1",0,0,-41,0,0,0,79,82,164,70,78,56.42,39,3.00,-14.00,-1001.00,
-1,-100,-100,-100,"-1,-1,-1",0,0,-41,0,0,0,79,82,164,70,78,56.45,39,0.00,-18.00,-997.00,
-1,-100,-100,-100,"-1,-1,-1",0,0,-40,0,0,0,79,82,164,70,78,56.48,39,9.00,-19.00,-999.00,
-1,-100,-100,-100,"-1,-1,-1",0,0,-40,0,0,0,79,82,165,70,78,56.41,39,0.00,-3.00,-998.00,
-1,-100,-100,-100,"-1,-1,-1",0,0,-40,0,0,0,79,82,164,70,78,56.38,40,-3.00,5.00,-1026.00,
-1,-100,-100,-100,"-1,-1,-1",0,0,-40,0,0,0,79,82,164,70,78,56.40,40,13.00,-7.00,-1000.00,
-1,-100,-100,-100,"-1,-1,-1",0,0,-40,0,0,0,79,82,163,70,78,56.39,40,0.00,0.00,-989.00,
-1,-100,-100,-100,"-1,-1,-1",0,0,-40,0,0,0,78,81,164,70,78,56.42,40,-9.00,3.00,-991.00,
-1,-100,-100,-100,"-1,-1,-1",0,0,-40,0,0,0,78,81,165,70,77,56.44,40,-3.00,7.00,-1011.00,
-1,-100,-100,-100,"-1,-1,-1",0,0,-40,0,0,0,78,81,164,70,77,56.43,40,-3.00,7.00,-996.00,
-1,-100,-100,-100,"-1,-1,-1",0,0,-40,0,0,0,78,81,164,70,77,56.41,40,-7.00,-13.00,-996.00,
-1,-100,-100,-100,"-1,-1,-1",0,0,-40,0,0,0,78,81,163,70,77,56.47,40,6.00,1.00,-998.00,
-1,-100,-100,-100,"-1,-1,-1",0,0,-40,0,0,0,78,81,162,70,77,56.34,40,3.00,-6.00,-1008.00,
-1,-100,-100,-100,"-1,-1,-1",0,0,-40,0,0,0,78,81,165,70,77,56.41,40,1.00,-1.00,-1009.00,
-1,-100,-100,-100,"-1,-1,-1",0,0,-41,0,0,0,78,81,163,70,77,56.38,41,-4.00,-10.00,-1009.00,
-1,-100,-100,-100,"-1,-1,-1",0,0,-40,0,0,0,78,81,163,70,77,56.41,41,-6.00,-1.00,-1014.00,
-1,-100,-100,-100,"-1,-1,-1",0,0,-41,0,0,0,78,81,163,70,77,56.42,41,-9.00,-11.00,-990.00,
-1,-100,-100,-100,"-1,-1,-1",0,0,-41,0,0,0,77,81,163,70,77,56.41,41,-6.00,-5.00,-1001.00,
-1,-100,-100,-100,"-1,-1,-1",0,0,-41,0,0,0,77,81,165,70,77,56.40,41,0.00,-14.00,-997.00,
-1,-100,-100,-100,"-1,-1,-1",0,0,-41,0,0,0,77,81,164,70,77,56.43,41,-2.00,-6.00,-976.00,
-1,-100,-100,-100,"-1,-1,-1",0,0,-41,0,0,0,77,81,163,70,77,56.49,41,-10.00,-3.00,-1005.00,
-1,-100,-100,-100,"-1,-1,-1",0,0,-41,0,0,0,77,81,164,70,77,56.41,41,3.00,-19.00,-996.00,
-1,-100,-100,-100,"-1,-1,-1",0,0,-41,0,0,0,77,81,165,70,77,56.47,41,2.00,-6.00,-985.00,
-1,-100,-100,-100,"-1,-1,-1",0,0,-41,0,0,0,77,81,165,70,77,56.47,41,7.00,0.00,-1012.00,
-1,-100,-100,-100,"-1,-1,-1",0,0,-41,0,0,0,77,81,164,70,77,56.40,42,13.00,-1.00,-1010.00,
-1,-100,-100,-100,"-1,-1,-1",0,0,-41,0,0,0,77,81,165,70,77,56.48,42,11.00,-1.00,-1002.00,
-1,-100,-100,-100,"-1,-1,-1",0,0,-41,0,0,0,77,81,164,70,77,56.44,42,-6.00,10.00,-1007.00,
-1,-100,-100,-100,"-1,-1,-1",0,0,-41,0,0,0,77,81,164,70,77,56.39,42,-7.00,0.00,-1001.00,
-1,-100,-100,-100,"-1,-1,-1",0,0,-41,0,0,0,77,81,165,70,77,56.47,42,20.00,-31.00,-945.00,
-1,-100,-100,-100,"-1,-1,-1",0,0,-41,0,0,0,77,81,164,70,77,56.42,42,13.00,-6.00,-931.00,
-1,-100,-100,-100,"-1,-1,-1",0,0,-41,0,0,1,77,81,163,70,77,56.44,42,1.00,-15.00,-923.00,
-1,-100,-100,-100,"-1,-1,-1",0,0,-41,0,0,2,77,81,161,60,77,56.45,42,0.00,-15.00,-925.00,
-1,-100,-100,-100,"-1,-1,-1",0,0,-41,0,0,2,77,81,158,60,77,56.35,42,18.00,-1.00,-914.00,
-1,-100,-100,-100,"-1,-1,-1",0,0,-41,0,0,3,77,81,154,60,77,56.37,42,-6.00,2.00,-892.00,
-1,-100,-100,-100,"-1,-1,-1",0,0,-41,0,0,4,77,81,149,50,77,56.28,43,26.00,-10.00,-884.00,
-1,-100,-100,-100,"-1,-1,-1",0,0,-41,0,0,5,77,81,144,50,77,56.26,43,-4.00,2.00,-893.00,
-1,-100,-100,-100,"-1,-1,-1",0,0,-41,0,0,6,77,81,136,40,77,56.12,43,6.00,5.00,-890.00,
-1,-100,-100,-100,"-1,-1,-1",0,0,-41,0,0,7,78,82,129,40,77,56.07,43,-2.00,-6.00,-906.00,
-1,-100,-100,-100,"-1,-1,-1",0,0,-41,0,0,8,78,82,120,30,77,56.03,43,16.00,-6.00,-952.00,
-1,-100,-100,-100,"-1,-1,-1",0,0,-41,0,0,9,78,82,110,20,77,55.94,43,0.00,-16.00,-998.00,
-1,-100,-100,-100,"-1,-1,-1",0,0,-40,0,0,9,78,82,101,10,77,55.83,43,5.00,-11.00,-1020.00,
-1,-100,-100,-100,"-1,-1,-1",0,0,-41,0,0,8,78,82,93,0,77,55.78,43,-10.00,-11.00,-1061.00,
-1,-100,-100,-100,"-1,-1,-1",0,0,-41,0,0,8,78,82,84,0,77,55.67,43,-1.00,-4.00,-1069.00,
-1,-100,-100,-100,"-1,-1,-1",0,0,-41,0,0,7,78,82,77,-10,77,55.58,43,-17.00,-5.00,-1080.00,
-1,-100,-100,-100,"-1,-1,-1",0,0,-41,0,0,6,78,82,70,-10,77,55.47,44,-6.00,-20.00,-1063.00,
-1,-100,-100,-100,"-1,-1,-1",0,0,-41,0,0,5,78,82,64,-20,77,55.46,44,0.00,-20.00,-1065.00,
-1,-100,-100,-100,"-1,-1,-1",0,0,-41,0,0,5,78,82,58,-30,77,55.47,44,-1.00,-17.00,-1025.00,
-1,-100,-100,-100,"-1,-1,-1",0,0,-41,0,0,5,79,81,53,-30,77,55.37,44,-11.00,-9.00,-1028.00,
-1,-100,-100,-100,"-1,-1,-1",0,0,-41,0,0,4,79,81,48,-40,77,55.34,44,-6.00,-17.00,-1014.00,
-1,-100,-100,-100,"-1,-1,-1",0,0,-40,0,0,4,79,81,43,-40,77,55.36,44,-20.00,-1.00,-1025.00,
-1,-100,-100,-100,"-1,-1,-1",0,0,-40,0,0,4,79,81,38,-50,77,55.32,44,2.00,-21.00,-1006.00,
-1,-100,-100,-100,"-1,-1,-1",0,0,-40,0,0,4,79,81,34,-50,77,55.15,44,-10.00,-15.00,-1015.00,
-1,-100,-100,-100,"-1,-1,-1",0,0,-41,0,0,4,79,81,30,-60,77,55.18,44,0.00,-24.00,-988.00,
-1,-100,-100,-100,"-1,-1,-1",0,0,-41,0,0,4,79,81,25,-60,77,55.13,44,-4.00,-3.00,-995.00,
-1,-100,-100,-100,"-1,-1,-1",0,0,-40,0,0,4,79,81,20,-60,77,55.07,45,-5.00,-13.00,-1006.00,
-1,-100,-100,-100,"-1,-1,-1",0,0,-40,0,0,4,79,81,16,-70,77,54.81,45,-1.00,-14.00,-1024.00,
-1,-100,-100,-100,"-1,-1,-1",0,0,-41,0,0,4,79,81,11,-70,77,54.30,45,-2.00,-4.00,-1023.00,
-1,-100,-100,-100,"-1,-1,-1",0,0,-41,0,0,3,78,83,10,-80,77,53.49,45,0.00,-12.00,-1024.00,
-1,-100,-100,-100,"-1,-1,-1",0,0,-41,0,0,3,78,83,10,-80,77,52.03,45,-13.00,-9.00,-1060.00,
-1,-100,-100,-100,"-1,-1,-1",0,0,-41,0,0,2,78,83,10,-80,77,51.41,45,-22.00,-6.00,-1060.00,
-1,-100,-100,-100,"-1,-1,-1",-6,0,-42,0,0,0,78,83,10,0,77,53.64,45,-9.00,-16.00,-1071.00,
-1,-100,-100,-100,"-1,-1,-1",-1,0,-43,-1,0,0,78,83,10,0,77,54.10,45,26.00,15.00,-925.00,
-1,-100,-100,-100,"-1,-1,-1",0,0,-43,0,0,0,78,83,10,0,77,54.45,45,-240.00,49.00,-604.00,
-1,-100,-100,-100,"-1,-1,-1",0,0,-43,0,0,0,78,83,10,0,77,54.62,45,154.00,8.00,-806.00,
-1,-100,-100,-100,"-1,-1,-1",0,0,-43,-1,0,0,78,83,10,0,77,54.71,45,0.00,-1.00,-1002.00,
-1,-100,-100,-100,"-1,-1,-1",0,0,-43,-1,0,0,78,83,10,0,77,54.81,45,1.00,-4.00,-996.00,
-1,-100,-100,-100,"-1,-1,-1",0,0,-43,-1,0,0,78,83,10,0,77,54.84,45,-1.00,-15.00,-996.00,
-1,-100,-100,-100,"-1,-1,-1",0,0,-43,-1,0,0,78,82,10,0,77,54.90,45,6.00,-12.00,-999.00,
-1,-100,-100,-100,"-1,-1,-1",0,0,-43,-1,0,0,78,82,10,0,77,54.90,45,6.00,-6.00,-1000.00,
-1,-100,-100,-100,"-1,-1,-1",0,0,-43,-1,0,0,78,82,10,0,77,54.95,45,4.00,-4.00,-998.00,
-1,-100,-100,-100,"-1,-1,-1",0,0,-43,-1,0,0,78,82,10,0,77,54.91,45,3.00,-3.00,-998.00,
-1,-100,-100,-100,"-1,-1,-1",0,0,-43,-1,0,0,78,82,10,0,77,54.95,45,2.00,-1.00,-999.00,
-1,-100,-100,-100,"-1,-1,-1",0,0,-43,0,0,0,78,82,10,0,77,54.94,45,2.00,-3.00,-999.00,
-1,-100,-100,-100,"-1,-1,-1",0,0,-44,0,0,0,78,82,10,0,77,54.93,45,4.00,-3.00,-1000.00,
-1,-100,-100,-100,"-1,-1,-1",0,0,-44,0,0,0,78,82,10,0,77,54.92,45,2.00,-3.00,-1000.00,
-1,-100,-100,-100,"-1,-1,-1",0,0,-44,0,0,0,78,82,10,0,77,54.94,45,4.00,-2.00,-1001.00,
-1,-100,-100,-100,"-1,-1,-1",0,0,-44,0,0,0,78,82,10,0,77,54.96,45,3.00,-4.00,-999.00,
-1,-100,-100,-100,"-1,-1,-1",0,0,-44,0,0,0,77,82,10,0,77,54.96,45,3.00,-3.00,-999.00,
-1,-100,-100,-100,"-1,-1,-1",0,0,-44,0,0,0,77,82,10,0,76,54.99,45,4.00,-3.00,-998.00,
-1,-100,-100,-100,"-1,-1,-1",0,0,-44,0,0,0,77,82,10,0,76,55.01,45,4.00,-4.00,-999.00,
-1,-100,-100,-100,"-1,-1,-1",0,0,-44,0,0,0,77,82,10,0,76,54.98,45,2.00,-3.00,-998.00,
-1,-100,-100,-100,"-1,-1,-1",0,0,-44,0,0,0,77,82,10,0,76,55.03,45,3.00,-5.00,-999.00,
-1,-100,-100,-100,"-1,-1,-1",0,0,-44,0,0,0,77,82,10,0,76,54.99,45,2.00,-2.00,-1001.00,
-1,-100,-100,-100,"-1,-1,-1",0,0,-44,0,0,0,77,82,10,0,76,55.04,45,4.00,-4.00,-999.00,
-1,-100,-100,-100,"-1,-1,-1",0,0,-44,0,0,0,77,82,10,0,76,55.03,45,2.00,-4.00,-999.00,
-1,-100,-100,-100,"-1,-1,-1",0,0,-44,0,0,0,77,82,10,0,76,55.06,45,1.00,-5.00,-1002.00,
-1,-100,-100,-100,"-1,-1,-1",0,0,-44,0,0,0,77,82,10,0,76,55.02,45,3.00,-3.00,-997.00,
-1,-100,-100,-100,"-1,-1,-1",0,0,-44,0,0,0,78,82,10,0,76,55.07,45,1.00,-4.00,-1001.00,
-1,-100,-100,-100,"-1,-1,-1",0,0,-44,0,0,0,78,82,10,0,76,55.03,45,1.00,-1.00,-1001.00,
-1,-100,-100,-100,"-1,-1,-1",0,0,-44,0,0,0,78,82,10,0,76,55.06,45,3.00,-4.00,-1001.00,
-1,-100,-100,-100,"-1,-1,-1",0,0,-44,0,0,0,78,82,10,0,76,55.00,45,2.00,-4.00,-999.00,
-1,-100,-100,-100,"-1,-1,-1",0,0,-44,0,0,0,78,82,10,0,76,54.81,45,1.00,-2.00,-999.00,
-1,-100,-100,-100,"-1,-1,-1",0,0,-44,0,0,0,78,82,10,0,76,54.66,45,3.00,-3.00,-1000.00,
-1,-100,-100,-100,"-1,-1,-1",0,0,-44,0,0,0,78,82,10,0,76,54.73,45,3.00,-2.00,-999.00,
-1,-100,-100,-100,"-1,-1,-1",0,0,-44,0,0,0,78,82,10,0,76,54.78,45,3.00,-4.00,-1000.00,
-1,-100,-100,-100,"-1,-1,-1",0,0,-44,0,0,0,78,82,10,0,76,54.87,45,2.00,-2.00,-998.00,
-1,-100,-100,-100,"-1,-1,-1",0,0,-44,0,0,0,78,82,10,0,76,55.00,45,3.00,-3.00,-1001.00,
-1,-100,-100,-100,"-1,-1,-1",0,0,-44,0,0,0,79,81,10,0,76,54.99,45,3.00,-3.00,-1001.00,
-1,-100,-100,-100,"-1,-1,-1",0,0,-44,0,0,0,79,81,10,0,76,54.97,45,2.00,-3.00,-996.00,
-1,-100,-100,-100,"-1,-1,-1",0,0,-44,0,0,0,79,81,10,0,76,55.01,45,3.00,-3.00,-999.00,
-1,-100,-100,-100,"-1,-1,-1",0,0,-44,0,0,0,79,81,10,0,76,55.04,45,1.00,-3.00,-999.00,
-1,-100,-100,-100,"-1,-1,-1",0,0,-44,0,0,0,79,81,10,0,76,55.03,45,2.00,-2.00,-1001.00,
-1,-100,-100,-100,"-1,-1,-1",0,0,-44,0,0,0,79,81,10,0,76,55.04,45,2.00,-4.00,-998.00,
-1,-100,-100,-100,"-1,-1,-1",0,0,-44,0,0,0,79,81,10,0,76,55.08,45,4.00,-3.00,-999.00,
-1,-100,-100,-100,"-1,-1,-1",0,0,-44,0,0,0,79,81,10,0,76,55.05,45,2.00,-4.00,-999.00,
-1,-100,-100,-100,"-1,-1,-1",0,0,-44,0,0,0,79,81,10,0,76,55.07,45,2.00,-2.00,-1000.00,
-1,-100,-100,-100,"-1,-1,-1",0,0,-44,0,0,0,79,81,10,0,76,55.07,45,4.00,-2.00,-999.00,
-1,-100,-100,-100,"-1,-1,-1",0,0,-44,0,0,0,77,82,10,0,76,55.06,45,1.00,-3.00,-1000.00,
-1,-100,-100,-100,"-1,-1,-1",0,0,-44,0,0,0,77,82,10,0,76,55.10,45,1.00,-4.00,-999.00,
-1,-100,-100,-100,"-1,-1,-1",0,0,-44,0,0,0,77,82,10,0,76,55.06,45,3.00,-4.00,-999.00,
-1,-100,-100,-100,"-1,-1,-1",0,0,-44,0,0,0,77,82,10,0,76,55.05,45,2.00,-4.00,-1001.00,
-1,-100,-100,-100,"-1,-1,-1",0,0,-44,0,0,0,77,82,10,0,76,55.07,45,2.00,-3.00,-998.00,
-1,-100,-100,-100,"-1,-1,-1",0,0,-44,0,0,0,77,82,10,0,76,54.97,45,2.00,-3.00,-999.00,
-1,-100,-100,-100,"-1,-1,-1",0,0,-44,0,0,0,77,82,10,0,76,55.14,45,4.00,-3.00,-1000.00,
-1,-100,-100,-100,"-1,-1,-1",0,0,-44,0,0,0,77,82,10,0,76,55.11,45,3.00,-2.00,-1001.00,
-1,-100,-100,-100,"-1,-1,-1",0,0,-44,0,0,0,77,82,10,0,76,55.09,45,3.00,-3.00,-1000.00,
-1,-100,-100,-100,"-1,-1,-1",0,0,-44,0,0,0,77,82,10,0,76,55.13,45,4.00,-3.00,-998.00,
-1,-100,-100,-100,"-1,-1,-1",0,0,-43,0,0,0,78,82,10,0,76,55.20,45,3.00,-4.00,-1001.00,
-1,-100,-100,-100,"-1,-1,-1",0,0,-43,0,0,0,78,82,10,0,76,55.21,45,3.00,-3.00,-1001.00,
-1,-100,-100,-100,"-1,-1,-1",0,0,-43,0,0,0,78,82,10,0,76,55.26,45,1.00,-3.00,-1000.00,
-1,-100,-100,-100,"-1,-1,-1",0,0,-43,0,0,0,78,82,10,0,76,55.24,45,1.00,-3.00,-999.00,
-1,-100,-100,-100,"-1,-1,-1",0,0,-43,0,0,0,78,82,10,0,76,55.27,45,3.00,-4.00,-999.00,
-1,-100,-100,-100,"-1,-1,-1",0,0,-43,0,0,0,78,82,10,0,76,55.29,45,2.00,-2.00,-1001.00,
-1,-100,-100,-100,"-1,-1,-1",0,0,-43,0,0,0,78,82,10,0,76,55.26,45,3.00,-4.00,-1001.00,
-1,-100,-100,-100,"-1,-1,-1",0,0,-43,0,0,0,78,82,10,0,76,55.23,45,3.00,-5.00,-1000.00,
-1,-100,-100,-100,"-1,-1,-1",0,0,-43,0,0,0,78,82,10,0,76,55.26,45,4.00,-3.00,-998.00,
-1,-100,-100,-100,"-1,-1,-1",0,0,-43,0,0,0,78,82,10,0,76,55.32,45,4.00,-4.00,-1000.00,
-1,-100,-100,-100,"-1,-1,-1",0,0,-43,0,0,0,77,82,10,0,76,55.32,45,1.00,-2.00,-999.00,
-1,-100,-100,-100,"-1,-1,-1",0,0,-43,0,0,0,77,82,10,0,76,55.14,45,2.00,-3.00,-1001.00,
-1,-100,-100,-100,"-1,-1,-1",0,0,-43,0,0,0,77,82,10,0,76,55.23,45,0.00,-3.00,-1002.00,
-1,-100,-100,-100,"-1,-1,-1",0,0,-43,0,0,0,77,82,10,0,76,55.16,45,4.00,-3.00,-998.00,
-1,-100,-100,-100,"-1,-1,-1",0,0,-43,0,0,0,77,82,10,0,76,55.16,45,4.00,-2.00,-999.00,
-1,-100,-100,-100,"-1,-1,-1",0,0,-43,0,0,0,77,82,10,0,76,55.19,45,1.00,-3.00,-1001.00,
-1,-100,-100,-100,"-1,-1,-1",0,0,-43,0,0,0,77,82,10,0,76,55.16,45,2.00,-4.00,-1000.00,
-1,-100,-100,-100,"-1,-1,-1",0,0,-43,0,0,0,77,82,10,0,76,55.19,45,2.00,-4.00,-997.00,
-1,-100,-100,-100,"-1,-1,-1",0,0,-43,0,0,0,77,82,10,0,76,55.16,45,2.00,-4.00,-998.00,
-1,-100,-100,-100,"-1,-1,-1",0,0,-43,0,0,0,77,82,10,0,76,55.14,45,4.00,-3.00,-998.00,
-1,-100,-100,-100,"-1,-1,-1",0,0,-43,0,0,0,78,82,10,0,76,55.15,45,3.00,-3.00,-1001.00,
-1,-100,-100,-100,"-1,-1,-1",0,0,-43,0,0,0,78,82,10,0,76,55.17,45,4.00,-2.00,-1000.00,
-1,-100,-100,-100,"-1,-1,-1",0,0,-43,0,0,0,78,82,10,0,76,55.17,45,1.00,-4.00,-1000.00,
-1,-100,-100,-100,"-1,-1,-1",0,0,-43,0,0,0,78,82,10,0,76,55.09,45,3.00,-4.00,-999.00,
-1,-100,-100,-100,"-1,-1,-1",0,0,-43,0,0,0,78,82,10,0,76,55.14,45,2.00,-4.00,-999.00,
-1,-100,-100,-100,"-1,-1,-1",0,0,-43,0,0,0,78,82,10,0,76,55.14,45,2.00,-2.00,-1001.00,
-1,-100,-100,-100,"-1,-1,-1",0,0,-43,0,0,0,78,82,10,0,76,55.15,45,1.00,-3.00,-999.00,
-1,-100,-100,-100,"-1,-1,-1",0,0,-43,0,0,0,78,82,10,0,76,55.10,45,5.00,-3.00,-998.00,
-1,-100,-100,-100,"-1,-1,-1",0,0,-43,0,0,0,78,82,10,0,76,55.12,45,2.00,-3.00,-998.00,
-1,-100,-100,-100,"-1,-1,-1",0,0,-43,0,0,0,78,82,10,0,76,55.12,45,3.00,-4.00,-1000.00,
-1,-100,-100,-100,"-1,-1,-1",0,0,-43,0,0,0,78,82,10,0,76,55.09,45,2.00,-4.00,-999.00,
-1,-100,-100,-100,"-1,-1,-1",0,0,-43,0,0,0,78,82,10,0,76,55.07,45,4.00,-4.00,-998.00,
-1,-100,-100,-100,"-1,-1,-1",0,0,-43,0,0,0,78,82,10,0,76,55.06,45,4.00,-3.00,-997.00,
-1,-100,-100,-100,"-1,-1,-1",0,0,-43,0,0,0,78,82,10,0,76,55.06,45,0.00,-4.00,-998.00,
-1,-100,-100,-100,"-1,-1,-1",0,0,-43,0,0,0,78,82,10,0,76,55.07,45,3.00,-3.00,-999.00,
-1,-100,-100,-100,"-1,-1,-1",0,0,-43,0,0,0,78,82,10,0,76,55.02,45,1.00,-4.00,-1000.00,
-1,-100,-100,-100,"-1,-1,-1",0,0,-43,0,0,0,78,82,10,0,76,55.06,45,3.00,-4.00,-1000.00,
-1,-100,-100,-100,"-1,-1,-1",0,0,-43,0,0,0,78,82,10,0,76,55.05,45,1.00,-3.00,-998.00,
-1,-100,-100,-100,"-1,-1,-1",0,0,-43,0,0,0,78,82,10,0,76,55.09,45,2.00,-3.00,-998.00,
-1,-100,-100,-100,"-1,-1,-1",0,0,-43,0,0,0,78,82,10,0,76,55.04,45,4.00,-5.00,-1001.00,
-1,-100,-100,-100,"-1,-1,-1",0,0,-43,0,0,0,79,82,10,0,76,55.04,45,2.00,-2.00,-999.00,
-1,-100,-100,-100,"-1,-1,-1",0,0,-43,0,0,0,79,82,10,0,76,55.08,45,3.00,-3.00,-1001.00,
-1,-100,-100,-100,"-1,-1,-1",0,0,-43,0,0,0,79,82,10,0,76,55.05,45,3.00,-3.00,-998.00,
-1,-100,-100,-100,"-1,-1,-1",0,0,-43,0,0,0,79,82,10,0,76,55.02,45,2.00,-4.00,-999.00,
-1,-100,-100,-100,"-1,-1,-1",0,0,-43,0,0,0,79,82,10,0,76,55.05,45,3.00,-3.00,-998.00,
-1,-100,-100,-100,"-1,-1,-1",0,0,-43,0,0,0,79,82,10,0,76,55.03,45,3.00,-3.00,-1001.00,
-1,-100,-100,-100,"-1,-1,-1",0,0,-43,0,0,0,79,82,10,0,76,55.08,45,2.00,-2.00,-996.00,
-1,-100,-100,-100,"-1,-1,-1",0,0,-43,0,0,0,79,82,10,0,76,55.04,45,3.00,-2.00,-998.00,
-1,-100,-100,-100,"-1,-1,-1",0,0,-43,0,0,0,79,82,10,0,76,55.04,45,4.00,-3.00,-1000.00,
-1,-100,-100,-100,"-1,-1,-1",0,0,-43,0,0,0,79,82,10,0,76,55.06,45,2.00,-2.00,-999.00,
-1,-100,-100,-100,"-1,-1,-1",0,0,-43,0,0,0,79,82,10,0,76,55.11,45,2.00,-4.00,-1000.00,
-1,-100,-100,-100,"-1,-1,-1",0,0,-43,0,0,0,79,82,10,0,76,55.04,45,2.00,-4.00,-1000.00,
-1,-100,-100,-100,"-1,-1,-1",0,0,-43,0,0,0,79,82,10,0,76,55.04,45,3.00,-3.00,-1000.00,
-1,-100,-100,-100,"-1,-1,-1",0,0,-43,0,0,0,79,82,10,0,76,55.07,45,3.00,-2.00,-998.00,
-1,-100,-100,-100,"-1,-1,-1",0,0,-43,0,0,0,79,82,10,0,76,55.04,45,3.00,-3.00,-1000.00,
-1,-100,-100,-100,"-1,-1,-1",0,0,-43,0,0,0,79,82,10,0,76,55.08,45,3.00,-1.00,-998.00,
-1,-100,-100,-100,"-1,-1,-1",0,0,-43,0,0,0,79,82,10,0,76,55.07,45,3.00,-3.00,-1000.00,
-1,-100,-100,-100,"-1,-1,-1",0,0,-43,0,0,0,79,82,10,0,76,55.04,45,2.00,-4.00,-1001.00,
-1,-100,-100,-100,"-1,-1,-1",0,0,-43,0,0,0,79,82,10,0,76,55.08,45,3.00,-4.00,-1000.00,
-1,-100,-100,-100,"-1,-1,-1",0,0,-43,0,0,0,79,82,10,0,76,55.08,45,3.00,-3.00,-1000.00,
-1,-100,-100,-100,"-1,-1,-1",0,0,-43,0,0,0,78,83,10,0,76,55.07,45,3.00,-4.00,-997.00,
-1,-100,-100,-100,"-1,-1,-1",0,0,-43,0,0,0,78,83,10,0,76,55.04,45,3.00,-3.00,-1000.00,
-1,-100,-100,-100,"-1,-1,-1",0,0,-43,0,0,0,78,83,10,0,76,55.09,45,3.00,-5.00,-1000.00,
-1,-100,-100,-100,"-1,-1,-1",0,0,-43,0,0,0,78,83,10,0,76,55.06,45,1.00,-2.00,-997.00,
-1,-100,-100,-100,"-1,-1,-1",0,0,-43,0,0,0,78,83,10,0,76,55.09,45,3.00,-3.00,-999.00,
-1,-100,-100,-100,"-1,-1,-1",0,0,-43,0,0,0,78,83,10,0,76,55.11,45,2.00,-4.00,-1000.00,
-1,-100,-100,-100,"-1,-1,-1",0,0,-43,0,0,0,78,83,10,0,76,55.08,45,2.00,-4.00,-1000.00,
-1,-100,-100,-100,"-1,-1,-1",0,0,-43,0,0,0,78,83,10,0,76,55.05,45,3.00,-4.00,-1002.00,
-1,-100,-100,-100,"-1,-1,-1",0,0,-43,0,0,0,78,83,10,0,76,55.11,45,3.00,-2.00,-1002.00,
-1,-100,-100,-100,"-1,-1,-1",0,0,-43,0,0,0,78,83,10,0,76,55.13,45,2.00,-3.00,-999.00,
